$GNGGA,094412.99,3542.6955743,N,13945.6087755,E,4,12,0.73,21.975,M,39.386,M,1.0,0000*51
$GNGGA,094413.13,3542.6955746,N,13945.6087785,E,4,12,0.73,21.973,M,39.386,M,1.1,0000*5D
$GNGGA,094413.27,3542.6955751,N,13945.6087784,E,4,12,0.73,21.972,M,39.386,M,1.3,0000*5E
$GNGGA,094413.41,3542.6955741,N,13945.6087810,E,4,12,0.73,21.972,M,39.386,M,1.4,0000*5A
$GNGGA,094413.55,3542.6955746,N,13945.6087779,E,4,12,0.73,21.971,M,39.386,M,1.6,0000*59
$GNGGA,094413.70,3542.6955727,N,13945.6087801,E,4,12,0.77,21.970,M,39.386,M,1.7,0000*5D
$GNGGA,094413.84,3542.6955725,N,13945.6087804,E,4,12,0.77,21.964,M,39.386,M,1.8,0000*5B
$GNGGA,094413.98,3542.6955739,N,13945.6087803,E,4,12,0.77,21.963,M,39.386,M,2.0,0000*50
$GNGGA,094414.12,3542.6955735,N,13945.6087812,E,4,12,0.77,21.962,M,39.386,M,2.1,0000*59
$GNGGA,094414.26,3542.6955717,N,13945.6087809,E,4,12,0.77,21.969,M,39.386,M,2.3,0000*5D
$GNGGA,094414.41,3542.6955707,N,13945.6087865,E,4,12,0.77,21.977,M,39.386,M,2.4,0000*5F
$GNGGA,094414.55,3542.6955744,N,13945.6087859,E,4,12,0.77,21.978,M,39.386,M,0.5,0000*5E
$GNGGA,094414.69,3542.6955742,N,13945.6087873,E,4,12,0.77,21.977,M,39.386,M,0.7,0000*52
$GNGGA,094414.83,3542.6955755,N,13945.6087856,E,4,12,0.77,21.977,M,39.386,M,0.8,0000*58
$GNGGA,094414.97,3542.6955769,N,13945.6087884,E,4,12,0.77,21.977,M,39.386,M,1.0,0000*54
$GNGGA,094415.12,3542.6955741,N,13945.6087872,E,4,12,0.77,21.976,M,39.386,M,1.1,0000*5B
$GNGGA,094415.26,3542.6955762,N,13945.6087837,E,4,12,0.77,21.971,M,39.386,M,1.3,0000*59
$GNGGA,094415.40,3542.6955747,N,13945.6087786,E,4,12,0.77,21.969,M,39.386,M,1.4,0000*55
$GNGGA,094415.54,3542.6955782,N,13945.6087833,E,4,12,0.77,21.966,M,39.386,M,1.5,0000*56
$GNGGA,094415.68,3542.6955789,N,13945.6087846,E,4,12,0.73,21.963,M,39.386,M,1.7,0000*53
$GNGGA,094415.83,3542.6955802,N,13945.6087863,E,4,12,0.73,21.953,M,39.386,M,1.8,0000*51
$GNGGA,094415.97,3542.6955835,N,13945.6087855,E,4,12,0.73,21.946,M,39.386,M,2.0,0000*5A
$GNGGA,094416.11,3542.6955839,N,13945.6087896,E,4,12,0.73,21.936,M,39.386,M,2.1,0000*52
$GNGGA,094416.25,3542.6955854,N,13945.6087856,E,4,12,0.73,21.932,M,39.386,M,2.3,0000*54
$GNGGA,094416.39,3542.6955852,N,13945.6087891,E,4,12,0.73,21.929,M,39.386,M,2.4,0000*59
$GNGGA,094416.54,3542.6955830,N,13945.6087852,E,4,12,0.73,21.930,M,39.386,M,0.5,0000*52
$GNGGA,094416.68,3542.6955833,N,13945.6087858,E,4,12,0.73,21.931,M,39.386,M,0.7,0000*57
$GNGGA,094416.82,3542.6955850,N,13945.6087864,E,4,12,0.73,21.929,M,39.386,M,0.8,0000*5F
$GNGGA,094416.96,3542.6955851,N,13945.6087849,E,4,12,0.73,21.928,M,39.386,M,1.0,0000*5C
$GNGGA,094417.10,3542.6955850,N,13945.6087847,E,4,12,0.73,21.924,M,39.386,M,1.1,0000*51
$GNGGA,094417.25,3542.6955863,N,13945.6087866,E,4,12,0.73,21.924,M,39.386,M,1.2,0000*57
$GNGGA,094417.39,3542.6955863,N,13945.6087836,E,4,12,0.73,21.923,M,39.386,M,1.4,0000*5E
$GNGGA,094417.53,3542.6955873,N,13945.6087853,E,4,12,0.75,21.922,M,39.386,M,1.5,0000*56
$GNGGA,094417.67,3542.6955884,N,13945.6087867,E,4,12,0.73,21.922,M,39.386,M,1.7,0000*5A
$GNGGA,094417.81,3542.6955871,N,13945.6087847,E,4,12,0.73,21.920,M,39.386,M,1.8,0000*57
$GNGGA,094417.96,3542.6955880,N,13945.6087855,E,4,12,0.73,21.923,M,39.386,M,2.0,0000*54
$GNGGA,094418.10,3542.6955877,N,13945.6087887,E,4,12,0.75,21.920,M,39.386,M,2.1,0000*56
$GNGGA,094418.24,3542.6955868,N,13945.6087852,E,4,12,0.73,21.925,M,39.386,M,2.2,0000*57
$GNGGA,094418.38,3542.6955793,N,13945.6087866,E,4,12,0.73,21.933,M,39.386,M,0.4,0000*55
$GNGGA,094418.52,3542.6955780,N,13945.6087828,E,4,12,0.75,21.943,M,39.386,M,0.5,0000*51
$GNGGA,094418.67,3542.6955777,N,13945.6087832,E,4,12,0.75,21.947,M,39.386,M,0.7,0000*52
$GNGGA,094418.81,3542.6955792,N,13945.6087827,E,4,12,0.75,21.947,M,39.386,M,0.8,0000*5A
$GNGGA,094418.95,3542.6955755,N,13945.6087822,E,4,12,0.75,21.950,M,39.386,M,1.0,0000*5E
$GNGGA,094419.09,3542.6955777,N,13945.6087829,E,4,12,0.75,21.953,M,39.386,M,1.1,0000*53
$GNGGA,094419.23,3542.6955748,N,13945.6087825,E,4,12,0.75,21.956,M,39.386,M,1.2,0000*5D
$GNGGA,094419.38,3542.6955729,N,13945.6087826,E,4,12,0.75,21.958,M,39.386,M,1.4,0000*5B
$GNGGA,094419.52,3542.6955701,N,13945.6087817,E,4,12,0.75,21.959,M,39.386,M,1.5,0000*5F
$GNGGA,094419.66,3542.6955728,N,13945.6087834,E,4,12,0.75,21.963,M,39.386,M,1.7,0000*59
$GNGGA,094419.80,3542.6955727,N,13945.6087804,E,4,12,0.75,21.968,M,39.386,M,1.8,0000*59
$GNGGA,094419.94,3542.6955700,N,13945.6087782,E,4,12,0.75,21.972,M,39.386,M,1.9,0000*52
$GNGGA,094420.09,3542.6955691,N,13945.6087806,E,4,12,0.73,21.975,M,39.386,M,2.1,0000*5C
$GNGGA,094420.23,3542.6955728,N,13945.6087858,E,4,12,0.73,21.977,M,39.386,M,2.2,0000*5D
$GNGGA,094420.37,3542.6955698,N,13945.6087802,E,4,12,0.73,21.985,M,39.386,M,0.4,0000*54
$GNGGA,094420.51,3542.6955692,N,13945.6087840,E,4,12,0.75,21.989,M,39.386,M,0.5,0000*53
$GNGGA,094420.65,3542.6955689,N,13945.6087841,E,4,12,0.75,21.991,M,39.386,M,0.7,0000*54
$GNGGA,094420.80,3542.6955664,N,13945.6087886,E,4,12,0.75,21.985,M,39.386,M,0.8,0000*5D
$GNGGA,094420.94,3542.6955648,N,13945.6087893,E,4,12,0.75,21.980,M,39.386,M,0.9,0000*56
$GNGGA,094421.08,3542.6955646,N,13945.6087853,E,4,12,0.75,21.981,M,39.386,M,1.1,0000*58
$GNGGA,094421.22,3542.6955665,N,13945.6087864,E,4,12,0.75,21.977,M,39.386,M,1.2,0000*5F
$GNGGA,094421.36,3542.6955674,N,13945.6087849,E,4,12,0.75,21.976,M,39.386,M,1.4,0000*52
$GNGGA,094421.51,3542.6955629,N,13945.6087847,E,4,12,0.73,21.974,M,39.386,M,1.5,0000*50
$GNGGA,094421.65,3542.6955621,N,13945.6087879,E,4,12,0.73,21.968,M,39.386,M,1.6,0000*5C
$GNGGA,094421.79,3542.6955627,N,13945.6087846,E,4,12,0.73,21.967,M,39.386,M,1.8,0000*5A
$GNGGA,094421.93,3542.6955654,N,13945.6087864,E,4,12,0.73,21.962,M,39.386,M,1.9,0000*5E
$GNGGA,094422.07,3542.6955636,N,13945.6087824,E,4,12,0.73,21.962,M,39.386,M,2.1,0000*5B
$GNGGA,094422.22,3542.6955607,N,13945.6087786,E,4,12,0.75,21.971,M,39.386,M,2.2,0000*5E
$GNGGA,094422.36,3542.6955644,N,13945.6087767,E,4,12,0.75,21.969,M,39.386,M,0.4,0000*5E
$GNGGA,094422.50,3542.6955676,N,13945.6087801,E,4,12,0.75,21.967,M,39.386,M,0.5,0000*5F
$GNGGA,094422.64,3542.6955690,N,13945.6087815,E,4,12,0.75,21.961,M,39.386,M,0.6,0000*50
$GNGGA,094422.78,3542.6955682,N,13945.6087807,E,4,12,0.75,21.958,M,39.386,M,0.8,0000*59
$GNGGA,094422.93,3542.6955681,N,13945.6087770,E,4,12,0.75,21.957,M,39.386,M,0.9,0000*5E
$GNGGA,094423.07,3542.6955670,N,13945.6087790,E,4,12,0.73,21.955,M,39.386,M,1.1,0000*5F
$GNGGA,094423.21,3542.6955647,N,13945.6087816,E,4,12,0.73,21.955,M,39.386,M,1.2,0000*5D
$GNGGA,094423.35,3542.6955649,N,13945.6087806,E,4,12,0.73,21.955,M,39.386,M,1.4,0000*51
$GNGGA,094423.49,3542.6955646,N,13945.6087833,E,4,12,0.73,21.955,M,39.386,M,1.5,0000*52
$GNGGA,094423.64,3542.6955659,N,13945.6087823,E,4,12,0.71,21.956,M,39.386,M,1.6,0000*50
$GNGGA,094423.78,3542.6955657,N,13945.6087843,E,4,12,0.71,21.950,M,39.386,M,1.8,0000*5D
$GNGGA,094423.92,3542.6955666,N,13945.6087851,E,4,12,0.73,21.948,M,39.386,M,1.9,0000*52
$GNGGA,094424.06,3542.6955669,N,13945.6087842,E,4,12,0.73,21.947,M,39.386,M,2.1,0000*51
$GNGGA,094424.20,3542.6955697,N,13945.6087863,E,4,12,0.73,21.946,M,39.386,M,2.2,0000*55
$GNGGA,094424.35,3542.6955719,N,13945.6087855,E,4,12,0.73,21.945,M,39.386,M,0.3,0000*53
$GNGGA,094424.49,3542.6955726,N,13945.6087858,E,4,12,0.73,21.942,M,39.386,M,0.5,0000*58
$GNGGA,094424.63,3542.6955721,N,13945.6087847,E,4,12,0.73,21.941,M,39.386,M,0.6,0000*59
$GNGGA,094424.77,3542.6955738,N,13945.6087877,E,4,12,0.73,21.937,M,39.386,M,0.8,0000*58
$GNGGA,094424.91,3542.6955732,N,13945.6087842,E,4,12,0.73,21.934,M,39.386,M,0.9,0000*5E
$GNGGA,094425.06,3542.6955746,N,13945.6087877,E,4,12,0.73,21.931,M,39.386,M,1.1,0000*58
$GNGGA,094425.20,3542.6955718,N,13945.6087840,E,4,12,0.73,21.931,M,39.386,M,1.2,0000*50
$GNGGA,094425.34,3542.6955751,N,13945.6087896,E,4,12,0.75,21.931,M,39.386,M,1.3,0000*54
$GNGGA,094425.48,3542.6955747,N,13945.6087889,E,4,12,0.75,21.931,M,39.386,M,1.5,0000*50
$GNGGA,094425.62,3542.6955745,N,13945.6087885,E,4,12,0.75,21.935,M,39.386,M,1.6,0000*51
$GNGGA,094425.77,3542.6955717,N,13945.6087846,E,4,12,0.75,21.935,M,39.386,M,1.8,0000*53
$GNGGA,094425.91,3542.6955752,N,13945.6087880,E,4,12,0.79,21.935,M,39.386,M,1.9,0000*5D
$GNGGA,094426.05,3542.6955736,N,13945.6087837,E,4,12,0.80,21.936,M,39.386,M,2.1,0000*53
$GNGGA,094426.19,3542.6955732,N,13945.6087862,E,4,12,0.80,21.936,M,39.386,M,2.2,0000*59
$GNGGA,094426.33,3542.6955741,N,13945.6087858,E,4,12,0.80,21.937,M,39.386,M,2.3,0000*5C
$GNGGA,094426.48,3542.6955712,N,13945.6087847,E,4,12,0.81,21.940,M,39.386,M,0.5,0000*5D
$GNGGA,094426.62,3542.6955726,N,13945.6087860,E,4,12,0.81,21.940,M,39.386,M,0.6,0000*54
$GNGGA,094426.76,3542.6955710,N,13945.6087845,E,4,12,0.81,21.943,M,39.386,M,0.8,0000*5E
$GNGGA,094426.90,3542.6955724,N,13945.6087867,E,4,12,0.81,21.945,M,39.386,M,0.9,0000*56
$GNGGA,094427.04,3542.6955720,N,13945.6087855,E,4,12,0.81,21.946,M,39.386,M,1.0,0000*54
$GNGGA,094427.19,3542.6955713,N,13945.6087838,E,4,12,0.81,21.949,M,39.386,M,1.2,0000*5E
$GNGGA,094427.33,3542.6955704,N,13945.6087843,E,4,12,0.81,21.951,M,39.386,M,1.3,0000*54
$GNGGA,094427.47,3542.6955697,N,13945.6087859,E,4,12,0.81,21.950,M,39.386,M,1.5,0000*50
$GNGGA,094427.61,3542.6955722,N,13945.6087853,E,4,12,0.80,21.952,M,39.386,M,1.6,0000*51
$GNGGA,094427.75,3542.6955711,N,13945.6087842,E,4,12,0.80,21.951,M,39.386,M,1.8,0000*59
$GNGGA,094427.90,3542.6955714,N,13945.6087838,E,4,12,0.80,21.952,M,39.386,M,1.9,0000*58
$GNGGA,094428.04,3542.6955702,N,13945.6087845,E,4,12,0.80,21.951,M,39.386,M,2.0,0000*5E
$GNGGA,094428.18,3542.6955725,N,13945.6087835,E,4,12,0.80,21.950,M,39.386,M,2.2,0000*52
$GNGGA,094428.32,3542.6955708,N,13945.6087837,E,4,12,0.84,21.950,M,39.386,M,2.3,0000*52
$GNGGA,094428.46,3542.6955710,N,13945.6087826,E,4,12,0.84,21.948,M,39.386,M,2.5,0000*57
$GNGGA,094428.61,3542.6955718,N,13945.6087844,E,4,12,0.84,21.947,M,39.386,M,2.6,0000*52
$GNGGA,094428.75,3542.6955711,N,13945.6087800,E,4,12,0.84,21.946,M,39.386,M,0.7,0000*5C
$GNGGA,094428.89,3542.6955724,N,13945.6087837,E,4,12,0.84,21.946,M,39.386,M,0.9,0000*53
$GNGGA,094429.03,3542.6955724,N,13945.6087826,E,4,12,0.93,21.945,M,39.386,M,1.0,0000*5D
$GNGGA,094429.17,3542.6955699,N,13945.6087822,E,4,12,0.93,21.948,M,39.386,M,1.2,0000*54
$GNGGA,094429.32,3542.6955715,N,13945.6087821,E,4,12,0.93,21.943,M,39.386,M,1.3,0000*5F
$GNGGA,094429.46,3542.6955698,N,13945.6087824,E,4,12,0.93,21.945,M,39.386,M,1.5,0000*5D
$GNGGA,094429.60,3542.6955678,N,13945.6087798,E,4,12,0.85,21.944,M,39.386,M,1.6,0000*5A
$GNGGA,094429.74,3542.6955688,N,13945.6087785,E,4,12,0.85,21.941,M,39.386,M,1.7,0000*58
$GNGGA,094429.88,3542.6955709,N,13945.6087806,E,4,12,0.85,21.944,M,39.386,M,1.9,0000*5C
$GNGGA,094430.03,3542.6955698,N,13945.6087816,E,4,12,0.85,21.945,M,39.386,M,2.0,0000*54
$GNGGA,094430.17,3542.6955707,N,13945.6087808,E,4,12,0.85,21.946,M,39.386,M,2.2,0000*58
$GNGGA,094430.31,3542.6955709,N,13945.6087813,E,4,12,0.85,21.947,M,39.386,M,2.3,0000*58
$GNGGA,094430.45,3542.6955696,N,13945.6087799,E,4,12,0.85,21.945,M,39.386,M,2.5,0000*55
$GNGGA,094430.59,3542.6955721,N,13945.6087807,E,4,12,0.85,21.946,M,39.386,M,0.6,0000*5F
$GNGGA,094430.74,3542.6955742,N,13945.6087838,E,4,12,0.85,21.946,M,39.386,M,0.7,0000*58
$GNGGA,094430.88,3542.6955747,N,13945.6087817,E,4,12,0.85,21.945,M,39.386,M,0.9,0000*5E
$GNGGA,094431.02,3542.6955732,N,13945.6087840,E,4,12,0.85,21.947,M,39.386,M,1.0,0000*57
$GNGGA,094431.16,3542.6955713,N,13945.6087832,E,4,12,0.85,21.946,M,39.386,M,1.2,0000*57
$GNGGA,094431.30,3542.6955714,N,13945.6087813,E,4,12,0.85,21.950,M,39.386,M,1.3,0000*51
$GNGGA,094431.45,3542.6955722,N,13945.6087849,E,4,12,0.85,21.942,M,39.386,M,1.4,0000*5D
$GNGGA,094431.59,3542.6955782,N,13945.6087843,E,4,12,0.85,21.949,M,39.386,M,1.6,0000*59
$GNGGA,094431.73,3542.6955696,N,13945.6087819,E,4,12,0.85,21.954,M,39.386,M,1.7,0000*57
$GNGGA,094431.87,3542.6955693,N,13945.6087828,E,4,12,0.85,21.960,M,39.386,M,1.9,0000*52
$GNGGA,094432.01,3542.6955716,N,13945.6087863,E,4,12,0.85,21.962,M,39.386,M,2.0,0000*54
$GNGGA,094432.16,3542.6955725,N,13945.6087855,E,4,12,0.85,21.963,M,39.386,M,2.2,0000*54
$GNGGA,094432.30,3542.6955729,N,13945.6087868,E,4,12,0.85,21.959,M,39.386,M,2.3,0000*5A
$GNGGA,094432.44,3542.6955765,N,13945.6087894,E,4,12,0.85,21.956,M,39.386,M,2.4,0000*5A
$GNGGA,094432.58,3542.6955746,N,13945.6087833,E,4,12,0.85,21.952,M,39.386,M,0.6,0000*5F
$GNGGA,094432.72,3542.6955760,N,13945.6087850,E,4,12,0.85,21.948,M,39.386,M,0.7,0000*5C
$GNGGA,094432.87,3542.6955760,N,13945.6087834,E,4,12,0.85,21.949,M,39.386,M,0.9,0000*5B
$GNGGA,094433.01,3542.6955789,N,13945.6087860,E,4,12,0.85,21.947,M,39.386,M,1.0,0000*54
$GNGGA,094433.15,3542.6955762,N,13945.6087847,E,4,12,0.85,21.952,M,39.386,M,1.2,0000*57
$GNGGA,094433.29,3542.6955786,N,13945.6087834,E,4,12,0.85,21.952,M,39.386,M,1.3,0000*57
$GNGGA,094433.43,3542.6955777,N,13945.6087838,E,4,12,0.85,21.950,M,39.386,M,1.4,0000*5C
$GNGGA,094433.58,3542.6955786,N,13945.6087840,E,4,12,0.85,21.950,M,39.386,M,1.6,0000*55
$GNGGA,094433.72,3542.6955788,N,13945.6087866,E,4,12,0.85,21.948,M,39.386,M,1.7,0000*5F
$GNGGA,094433.86,3542.6955770,N,13945.6087801,E,4,12,0.85,21.948,M,39.386,M,1.9,0000*5C
$GNGGA,094434.00,3542.6955806,N,13945.6087823,E,4,12,0.85,21.944,M,39.386,M,2.0,0000*5D
$GNGGA,094434.14,3542.6955819,N,13945.6087846,E,4,12,0.85,21.945,M,39.386,M,2.1,0000*55
$GNGGA,094434.29,3542.6955812,N,13945.6087834,E,4,12,0.85,21.941,M,39.386,M,2.3,0000*53
$GNGGA,094434.43,3542.6955742,N,13945.6087822,E,4,12,0.85,21.943,M,39.386,M,0.4,0000*55
$GNGGA,094434.57,3542.6955758,N,13945.6087835,E,4,12,0.85,21.943,M,39.386,M,0.6,0000*5F
$GNGGA,094434.71,3542.6955764,N,13945.6087853,E,4,12,0.85,21.944,M,39.386,M,0.7,0000*52
$GNGGA,094434.85,3542.6955752,N,13945.6087810,E,4,12,0.85,21.943,M,39.386,M,0.9,0000*52
$GNGGA,094435.00,3542.6955746,N,13945.6087861,E,4,12,0.85,21.946,M,39.386,M,1.0,0000*50
$GNGGA,094435.14,3542.6955756,N,13945.6087807,E,4,12,0.85,21.944,M,39.386,M,1.1,0000*57
$GNGGA,094435.28,3542.6955757,N,13945.6087819,E,4,12,0.85,21.941,M,39.386,M,1.3,0000*51
$GNGGA,094435.42,3542.6955741,N,13945.6087869,E,4,12,0.85,21.941,M,39.386,M,1.4,0000*5A
$GNGGA,094435.56,3542.6955763,N,13945.6087881,E,4,12,0.85,21.944,M,39.386,M,1.6,0000*5E
$GNGGA,094435.71,3542.6955734,N,13945.6087829,E,4,12,0.85,21.950,M,39.386,M,1.7,0000*5F
$GNGGA,094435.85,3542.6955726,N,13945.6087868,E,4,12,0.85,21.943,M,39.386,M,1.8,0000*5F
$GNGGA,094435.99,3542.6955753,N,13945.6087831,E,4,12,0.85,21.948,M,39.386,M,2.0,0000*5C
$GNGGA,094436.13,3542.6955725,N,13945.6087858,E,4,12,0.85,21.946,M,39.386,M,2.1,0000*5C
$GNGGA,094436.27,3542.6955728,N,13945.6087831,E,4,12,1.03,21.945,M,39.386,M,2.3,0000*57
$GNGGA,094436.42,3542.6955705,N,13945.6087829,E,4,12,1.03,21.945,M,39.386,M,2.4,0000*55
$GNGGA,094436.56,3542.6955684,N,13945.6087844,E,4,12,1.03,21.945,M,39.386,M,2.6,0000*51
$GNGGA,094436.70,3542.6955739,N,13945.6087869,E,4,12,1.03,21.945,M,39.386,M,0.7,0000*5E
$GNGGA,094436.84,3542.6955724,N,13945.6087848,E,4,12,1.03,21.947,M,39.386,M,0.8,0000*57
$GNGGA,094436.98,3542.6955690,N,13945.6087862,E,4,12,1.03,21.950,M,39.386,M,1.0,0000*53
$GNGGA,094437.13,3542.6955675,N,13945.6087832,E,4,12,1.03,21.957,M,39.386,M,1.1,0000*59
$GNGGA,094437.27,3542.6955657,N,13945.6087922,E,4,12,1.11,21.958,M,39.386,M,1.3,0000*50
$GNGGA,094437.41,3542.6955665,N,13945.6087864,E,4,12,1.11,21.964,M,39.386,M,1.4,0000*5A
$GNGGA,094437.55,3542.6955634,N,13945.6087853,E,4,12,1.11,21.970,M,39.386,M,1.6,0000*58
$GNGGA,094437.69,3542.6955642,N,13945.6087848,E,4,12,1.11,21.974,M,39.386,M,1.7,0000*59
$GNGGA,094437.84,3542.6955622,N,13945.6087802,E,4,12,1.11,21.972,M,39.386,M,1.8,0000*5B
$GNGGA,094437.98,3542.6955620,N,13945.6087824,E,4,12,1.30,21.971,M,39.386,M,2.0,0000*5B
$GNGGA,094438.12,3542.6955642,N,13945.6087818,E,4,12,1.11,21.969,M,39.386,M,2.1,0000*56
$GNGGA,094438.26,3542.6955625,N,13945.6087834,E,4,12,1.11,21.965,M,39.386,M,2.3,0000*50
$GNGGA,094438.40,3542.6955654,N,13945.6087850,E,4,12,1.11,21.968,M,39.386,M,0.4,0000*5C
$GNGGA,094438.55,3542.6955660,N,13945.6087783,E,4,12,1.11,21.964,M,39.386,M,0.5,0000*53
$GNGGA,094438.69,3542.6955699,N,13945.6087815,E,4,12,1.11,21.956,M,39.386,M,0.7,0000*59
$GNGGA,094438.83,3542.6955688,N,13945.6087828,E,4,12,1.11,21.951,M,39.386,M,0.8,0000*5B
$GNGGA,094438.97,3542.6955747,N,13945.6087923,E,4,12,0.93,21.946,M,39.386,M,1.0,0000*52
$GNGGA,094439.11,3542.6955773,N,13945.6087955,E,4,12,0.93,21.943,M,39.386,M,1.1,0000*5F
$GNGGA,094439.26,3542.6955748,N,13945.6087883,E,4,12,0.93,21.941,M,39.386,M,1.3,0000*59
$GNGGA,094439.40,3542.6955751,N,13945.6087909,E,4,12,1.11,21.939,M,39.386,M,1.4,0000*51
$GNGGA,094439.54,3542.6955777,N,13945.6087936,E,4,12,1.11,21.938,M,39.386,M,1.5,0000*5C
$GNGGA,094439.68,3542.6955781,N,13945.6087927,E,4,12,1.11,21.939,M,39.386,M,1.7,0000*59
$GNGGA,094439.82,3542.6955815,N,13945.6087903,E,4,12,1.11,21.935,M,39.386,M,1.8,0000*5A
$GNGGA,094439.97,3542.6955939,N,13945.6087941,E,4,12,1.11,21.936,M,39.386,M,2.0,0000*5F
$GNGGA,094440.11,3542.6956073,N,13945.6087871,E,4,12,1.11,21.938,M,39.386,M,2.1,0000*56
$GNGGA,094440.25,3542.6956203,N,13945.6087777,E,4,12,0.93,21.945,M,39.386,M,2.3,0000*5E
$GNGGA,094440.39,3542.6956331,N,13945.6087881,E,4,12,0.93,21.954,M,39.386,M,2.4,0000*52
$GNGGA,094440.53,3542.6956458,N,13945.6087760,E,4,12,0.93,21.969,M,39.386,M,0.5,0000*5B
$GNGGA,094440.68,3542.6956561,N,13945.6087751,E,4,12,0.93,21.985,M,39.386,M,0.7,0000*5A
$GNGGA,094440.82,3542.6956688,N,13945.6087696,E,4,12,0.93,22.008,M,39.386,M,0.8,0000*50
$GNGGA,094440.96,3542.6956794,N,13945.6087625,E,4,12,0.93,22.037,M,39.386,M,1.0,0000*54
$GNGGA,094441.10,3542.6956969,N,13945.6087502,E,4,12,0.93,22.075,M,39.386,M,1.1,0000*56
$GNGGA,094441.24,3542.6957145,N,13945.6087529,E,4,12,0.93,22.109,M,39.386,M,1.2,0000*56
$GNGGA,094441.39,3542.6957327,N,13945.6087427,E,4,12,0.99,22.158,M,39.386,M,1.4,0000*5B
$GNGGA,094441.53,3542.6957420,N,13945.6087254,E,4,12,1.30,22.202,M,39.386,M,1.5,0000*5A
$GNGGA,094441.67,3542.6957637,N,13945.6087079,E,4,12,1.30,22.252,M,39.386,M,1.7,0000*53
$GNGGA,094441.81,3542.6957821,N,13945.6086913,E,4,12,1.11,22.300,M,39.386,M,1.8,0000*5C
$GNGGA,094441.95,3542.6958069,N,13945.6086747,E,4,12,1.30,22.338,M,39.386,M,2.0,0000*5E
$GNGGA,094442.10,3542.6958342,N,13945.6086572,E,4,12,1.14,22.375,M,39.386,M,2.1,0000*50
$GNGGA,094442.24,3542.6958562,N,13945.6086449,E,4,12,0.90,22.409,M,39.386,M,2.2,0000*58
$GNGGA,094442.38,3542.6958689,N,13945.6086378,E,4,12,0.90,22.441,M,39.386,M,2.4,0000*5C
$GNGGA,094442.52,3542.6958977,N,13945.6086307,E,4,12,0.90,22.467,M,39.386,M,0.5,0000*51
$GNGGA,094442.66,3542.6959439,N,13945.6086249,E,4,12,0.90,22.491,M,39.386,M,0.7,0000*50
$GNGGA,094442.81,3542.6959746,N,13945.6086146,E,4,12,0.90,22.516,M,39.386,M,0.8,0000*5F
$GNGGA,094442.95,3542.6960108,N,13945.6086116,E,4,12,0.90,22.536,M,39.386,M,0.9,0000*5A
$GNGGA,094443.09,3542.6960282,N,13945.6085980,E,4,12,0.90,22.548,M,39.386,M,1.1,0000*5B
$GNGGA,094443.23,3542.6960607,N,13945.6085962,E,4,12,0.90,22.562,M,39.386,M,1.2,0000*5D
$GNGGA,094443.37,3542.6960782,N,13945.6085874,E,4,12,0.90,22.571,M,39.386,M,1.4,0000*56
$GNGGA,094443.52,3542.6960884,N,13945.6085799,E,4,12,0.90,22.572,M,39.386,M,1.5,0000*52
$GNGGA,094443.66,3542.6960991,N,13945.6085624,E,4,12,1.01,22.564,M,39.386,M,1.7,0000*5B
$GNGGA,094443.80,3542.6961146,N,13945.6085432,E,4,12,1.14,22.558,M,39.386,M,1.8,0000*51
$GNGGA,094443.94,3542.6961408,N,13945.6085206,E,4,12,1.01,22.540,M,39.386,M,1.9,0000*56
$GNGGA,094444.08,3542.6961681,N,13945.6085046,E,4,12,1.14,22.527,M,39.386,M,2.1,0000*5F
$GNGGA,094444.23,3542.6961948,N,13945.6084945,E,4,12,1.14,22.517,M,39.386,M,2.2,0000*57
$GNGGA,094444.37,3542.6962338,N,13945.6084896,E,4,12,1.14,22.516,M,39.386,M,2.4,0000*54
$GNGGA,094444.51,3542.6962680,N,13945.6084734,E,4,12,1.14,22.507,M,39.386,M,2.5,0000*54
$GNGGA,094444.65,3542.6962886,N,13945.6084499,E,4,12,1.14,22.506,M,39.386,M,0.7,0000*5E
$GNGGA,094444.79,3542.6963151,N,13945.6084305,E,4,12,1.14,22.509,M,39.386,M,0.8,0000*53
$GNGGA,094444.94,3542.6963454,N,13945.6084200,E,4,12,1.29,22.514,M,39.386,M,0.9,0000*57
$GNGGA,094445.08,3542.6963699,N,13945.6083927,E,4,12,1.29,22.516,M,39.386,M,1.1,0000*52
$GNGGA,094445.22,3542.6963877,N,13945.6083551,E,4,12,1.11,22.514,M,39.386,M,1.2,0000*53
$GNGGA,094445.36,3542.6964160,N,13945.6083258,E,4,12,0.93,22.511,M,39.386,M,1.4,0000*58
$GNGGA,094445.50,3542.6964169,N,13945.6082979,E,4,12,0.93,22.507,M,39.386,M,1.5,0000*5E
$GNGGA,094445.65,3542.6964144,N,13945.6082609,E,4,12,0.93,22.503,M,39.386,M,1.6,0000*58
$GNGGA,094445.79,3542.6964205,N,13945.6082370,E,4,12,0.93,22.497,M,39.386,M,1.8,0000*5A
$GNGGA,094445.93,3542.6964221,N,13945.6081968,E,4,12,0.93,22.492,M,39.386,M,1.9,0000*5C
$GNGGA,094446.07,3542.6964258,N,13945.6081780,E,4,12,0.93,22.482,M,39.386,M,2.1,0000*5E
$GNGGA,094446.21,3542.6964290,N,13945.6081561,E,4,12,0.94,22.477,M,39.386,M,2.2,0000*5D
$GNGGA,094446.36,3542.6964273,N,13945.6081229,E,4,12,0.94,22.478,M,39.386,M,2.4,0000*54
$GNGGA,094446.50,3542.6964291,N,13945.6080917,E,4,12,0.94,22.470,M,39.386,M,2.5,0000*56
$GNGGA,094446.64,3542.6964355,N,13945.6080646,E,4,12,0.94,22.463,M,39.386,M,0.6,0000*50
$GNGGA,094446.78,3542.6964588,N,13945.6080556,E,4,12,0.94,22.463,M,39.386,M,0.8,0000*57
$GNGGA,094446.92,3542.6964874,N,13945.6080499,E,4,12,0.94,22.463,M,39.386,M,0.9,0000*5E
$GNGGA,094447.07,3542.6965287,N,13945.6080455,E,4,12,0.94,22.454,M,39.386,M,1.1,0000*59
$GNGGA,094447.21,3542.6965706,N,13945.6080449,E,4,12,0.94,22.446,M,39.386,M,1.2,0000*5C
$GNGGA,094447.35,3542.6966104,N,13945.6080341,E,4,12,0.94,22.442,M,39.386,M,1.4,0000*53
$GNGGA,094447.49,3542.6966469,N,13945.6080225,E,4,12,0.94,22.451,M,39.386,M,1.5,0000*56
$GNGGA,094447.63,3542.6966724,N,13945.6080044,E,4,12,0.94,22.453,M,39.386,M,1.6,0000*50
$GNGGA,094447.78,3542.6967113,N,13945.6079924,E,4,12,0.94,22.457,M,39.386,M,1.8,0000*5A
$GNGGA,094447.92,3542.6967430,N,13945.6079795,E,4,12,0.94,22.458,M,39.386,M,1.9,0000*50
$GNGGA,094448.06,3542.6967698,N,13945.6079701,E,4,12,0.94,22.464,M,39.386,M,2.1,0000*5B
$GNGGA,094448.20,3542.6968112,N,13945.6079706,E,4,12,0.94,22.465,M,39.386,M,2.2,0000*50
$GNGGA,094448.34,3542.6968467,N,13945.6079834,E,4,12,0.99,22.469,M,39.386,M,2.3,0000*5C
$GNGGA,094448.49,3542.6968791,N,13945.6079999,E,4,12,0.94,22.468,M,39.386,M,0.5,0000*52
$GNGGA,094448.63,3542.6969135,N,13945.6080165,E,4,12,0.94,22.466,M,39.386,M,0.6,0000*53
$GNGGA,094448.77,3542.6969406,N,13945.6080213,E,4,12,0.94,22.461,M,39.386,M,0.8,0000*58
$GNGGA,094448.91,3542.6969647,N,13945.6080197,E,4,12,0.94,22.460,M,39.386,M,0.9,0000*58
$GNGGA,094449.05,3542.6969820,N,13945.6080100,E,4,12,0.94,22.456,M,39.386,M,1.1,0000*59
$GNGGA,094449.20,3542.6970010,N,13945.6079967,E,4,12,0.94,22.451,M,39.386,M,1.2,0000*56
$GNGGA,094449.34,3542.6970217,N,13945.6079908,E,4,12,0.94,22.442,M,39.386,M,1.3,0000*5C
$GNGGA,094449.48,3542.6970354,N,13945.6079842,E,4,12,0.94,22.439,M,39.386,M,1.5,0000*54
$GNGGA,094449.62,3542.6970457,N,13945.6079960,E,4,12,0.94,22.435,M,39.386,M,1.6,0000*56
$GNGGA,094449.76,3542.6970478,N,13945.6080114,E,4,12,0.94,22.430,M,39.386,M,1.8,0000*58
$GNGGA,094449.91,3542.6970466,N,13945.6080540,E,4,12,0.94,22.423,M,39.386,M,1.9,0000*58
$GNGGA,094450.05,3542.6970386,N,13945.6080939,E,4,12,0.94,22.419,M,39.386,M,2.0,0000*55
$GNGGA,094450.19,3542.6970200,N,13945.6081064,E,4,12,0.94,22.408,M,39.386,M,2.2,0000*55
$GNGGA,094450.33,3542.6970097,N,13945.6081165,E,4,12,0.94,22.397,M,39.386,M,2.3,0000*51
$GNGGA,094450.47,3542.6970211,N,13945.6081227,E,4,12,0.94,22.396,M,39.386,M,0.5,0000*5E
$GNGGA,094450.62,3542.6970468,N,13945.6081189,E,4,12,0.94,22.402,M,39.386,M,0.6,0000*5F
$GNGGA,094450.76,3542.6970942,N,13945.6081056,E,4,12,0.94,22.398,M,39.386,M,0.8,0000*56
$GNGGA,094450.90,3542.6971370,N,13945.6080980,E,4,12,0.94,22.393,M,39.386,M,0.9,0000*5D
$GNGGA,094451.04,3542.6971755,N,13945.6080840,E,4,12,0.94,22.396,M,39.386,M,1.0,0000*52
$GNGGA,094451.18,3542.6972148,N,13945.6080593,E,4,12,0.99,22.403,M,39.386,M,1.2,0000*51
$GNGGA,094451.33,3542.6972568,N,13945.6080274,E,4,12,0.99,22.409,M,39.386,M,1.3,0000*5B
$GNGGA,094451.47,3542.6972999,N,13945.6079933,E,4,12,0.99,22.409,M,39.386,M,1.5,0000*52
$GNGGA,094451.61,3542.6973481,N,13945.6079772,E,4,12,0.94,22.411,M,39.386,M,1.6,0000*5F
$GNGGA,094451.75,3542.6973896,N,13945.6079602,E,4,12,0.94,22.414,M,39.386,M,1.8,0000*5D
$GNGGA,094451.89,3542.6974362,N,13945.6079397,E,4,12,0.99,22.425,M,39.386,M,1.9,0000*5E
$GNGGA,094452.04,3542.6974877,N,13945.6079208,E,4,12,0.99,22.434,M,39.386,M,2.0,0000*5A
$GNGGA,094452.18,3542.6975346,N,13945.6079006,E,4,12,0.99,22.445,M,39.386,M,2.2,0000*57
$GNGGA,094452.32,3542.6975764,N,13945.6078812,E,4,12,0.99,22.461,M,39.386,M,2.3,0000*50
$GNGGA,094452.46,3542.6976218,N,13945.6078646,E,4,12,0.99,22.467,M,39.386,M,0.5,0000*53
$GNGGA,094452.60,3542.6976701,N,13945.6078411,E,4,12,0.99,22.467,M,39.386,M,0.6,0000*59
$GNGGA,094452.75,3542.6977264,N,13945.6078271,E,4,12,0.99,22.462,M,39.386,M,0.7,0000*5E
$GNGGA,094452.89,3542.6977781,N,13945.6078185,E,4,12,0.99,22.460,M,39.386,M,0.9,0000*57
$GNGGA,094453.03,3542.6978295,N,13945.6078146,E,4,12,0.99,22.464,M,39.386,M,1.0,0000*58
$GNGGA,094453.17,3542.6978780,N,13945.6078086,E,4,12,0.99,22.467,M,39.386,M,1.2,0000*50
$GNGGA,094453.31,3542.6979278,N,13945.6078042,E,4,12,0.99,22.473,M,39.386,M,1.3,0000*5B
$GNGGA,094453.46,3542.6979807,N,13945.6077952,E,4,12,0.99,22.471,M,39.386,M,1.5,0000*5A
$GNGGA,094453.60,3542.6980246,N,13945.6077785,E,4,12,0.99,22.472,M,39.386,M,1.6,0000*53
$GNGGA,094453.74,3542.6980774,N,13945.6077546,E,4,12,0.99,22.461,M,39.386,M,1.7,0000*5C
$GNGGA,094453.88,3542.6981269,N,13945.6077317,E,4,12,0.99,22.455,M,39.386,M,1.9,0000*5C
$GNGGA,094454.02,3542.6981789,N,13945.6077063,E,4,12,0.99,22.455,M,39.386,M,2.0,0000*58
$GNGGA,094454.17,3542.6982313,N,13945.6076931,E,4,12,0.99,22.453,M,39.386,M,2.2,0000*53
$GNGGA,094454.31,3542.6982858,N,13945.6076837,E,4,12,0.99,22.448,M,39.386,M,2.3,0000*5F
$GNGGA,094454.45,3542.6983422,N,13945.6076720,E,4,12,0.99,22.443,M,39.386,M,0.5,0000*5A
$GNGGA,094454.59,3542.6983964,N,13945.6076537,E,4,12,0.99,22.438,M,39.386,M,0.6,0000*53
$GNGGA,094454.73,3542.6984433,N,13945.6076353,E,4,12,0.99,22.445,M,39.386,M,0.7,0000*5C
$GNGGA,094454.88,3542.6984888,N,13945.6076154,E,4,12,0.99,22.446,M,39.386,M,0.9,0000*5C
$GNGGA,094455.02,3542.6985302,N,13945.6075897,E,4,12,0.99,22.442,M,39.386,M,1.0,0000*5E
$GNGGA,094455.16,3542.6985891,N,13945.6075806,E,4,12,0.99,22.451,M,39.386,M,1.2,0000*52
$GNGGA,094455.30,3542.6986371,N,13945.6075704,E,4,12,0.99,22.449,M,39.386,M,1.3,0000*55
$GNGGA,094455.44,3542.6986977,N,13945.6075495,E,4,12,0.99,22.450,M,39.386,M,1.4,0000*5E
$GNGGA,094455.59,3542.6987593,N,13945.6075429,E,4,12,0.99,22.444,M,39.386,M,1.6,0000*55
$GNGGA,094455.73,3542.6988172,N,13945.6075283,E,4,12,0.99,22.444,M,39.386,M,1.7,0000*5E
$GNGGA,094455.87,3542.6988646,N,13945.6075078,E,4,12,0.99,22.444,M,39.386,M,1.9,0000*5D
$GNGGA,094456.01,3542.6989131,N,13945.6074835,E,4,12,0.99,22.440,M,39.386,M,2.0,0000*58
$GNGGA,094456.15,3542.6989643,N,13945.6074591,E,4,12,0.99,22.443,M,39.386,M,2.2,0000*5D
$GNGGA,094456.30,3542.6990201,N,13945.6074319,E,4,12,0.99,22.443,M,39.386,M,2.3,0000*57
$GNGGA,094456.44,3542.6990716,N,13945.6074306,E,4,12,0.99,22.445,M,39.386,M,2.4,0000*58
$GNGGA,094456.58,3542.6991276,N,13945.6074123,E,4,12,0.99,22.444,M,39.386,M,0.6,0000*53
$GNGGA,094456.72,3542.6991946,N,13945.6074022,E,4,12,0.99,22.449,M,39.386,M,0.7,0000*5F
$GNGGA,094456.86,3542.6992550,N,13945.6073791,E,4,12,0.99,22.451,M,39.386,M,0.9,0000*53
$GNGGA,094457.01,3542.6993149,N,13945.6073570,E,4,12,0.99,22.454,M,39.386,M,1.0,0000*50
$GNGGA,094457.15,3542.6993733,N,13945.6073387,E,4,12,0.99,22.453,M,39.386,M,1.1,0000*56
$GNGGA,094457.29,3542.6994307,N,13945.6073085,E,4,12,0.99,22.454,M,39.386,M,1.3,0000*59
$GNGGA,094457.43,3542.6994924,N,13945.6072972,E,4,12,0.99,22.452,M,39.386,M,1.4,0000*5F
$GNGGA,094457.57,3542.6995519,N,13945.6072978,E,4,12,0.99,22.458,M,39.386,M,1.6,0000*5B
$GNGGA,094457.72,3542.6996193,N,13945.6072994,E,4,12,0.99,22.451,M,39.386,M,1.7,0000*53
$GNGGA,094457.86,3542.6996756,N,13945.6072990,E,4,12,0.99,22.450,M,39.386,M,1.9,0000*5C
$GNGGA,094458.00,3542.6997411,N,13945.6072931,E,4,12,0.99,22.444,M,39.386,M,2.0,0000*58
$GNGGA,094458.14,3542.6997970,N,13945.6072782,E,4,12,0.99,22.444,M,39.386,M,2.1,0000*50
$GNGGA,094458.28,3542.6998494,N,13945.6072585,E,4,12,0.99,22.441,M,39.386,M,2.3,0000*55
$GNGGA,094458.43,3542.6999020,N,13945.6072320,E,4,12,0.99,22.441,M,39.386,M,0.4,0000*5E
$GNGGA,094458.57,3542.6999590,N,13945.6072214,E,4,12,0.99,22.441,M,39.386,M,0.6,0000*51
$GNGGA,094458.71,3542.7000197,N,13945.6072028,E,4,12,0.99,22.446,M,39.386,M,0.7,0000*55
$GNGGA,094458.85,3542.7000814,N,13945.6071898,E,4,12,0.99,22.449,M,39.386,M,0.9,0000*5D
$GNGGA,094458.99,3542.7001481,N,13945.6071915,E,4,12,0.99,22.445,M,39.386,M,1.0,0000*51
$GNGGA,094459.14,3542.7002127,N,13945.6071794,E,4,12,0.99,22.448,M,39.386,M,1.1,0000*54
$GNGGA,094459.28,3542.7002752,N,13945.6071513,E,4,12,0.99,22.453,M,39.386,M,1.3,0000*5A
$GNGGA,094459.42,3542.7003281,N,13945.6071289,E,4,12,0.99,22.456,M,39.386,M,1.4,0000*5A
$GNGGA,094459.56,3542.7003863,N,13945.6071137,E,4,12,0.99,22.454,M,39.386,M,1.6,0000*5F
$GNGGA,094459.70,3542.7004463,N,13945.6070928,E,4,12,0.94,22.455,M,39.386,M,1.7,0000*5A
$GNGGA,094459.85,3542.7005052,N,13945.6070814,E,4,12,0.94,22.462,M,39.386,M,1.8,0000*52
$GNGGA,094459.99,3542.7005722,N,13945.6070729,E,4,12,0.94,22.462,M,39.386,M,2.0,0000*55
$GNGGA,094500.13,3542.7006401,N,13945.6070615,E,4,12,0.99,22.460,M,39.386,M,2.1,0000*5B
$GNGGA,094500.27,3542.7007051,N,13945.6070418,E,4,12,0.99,22.467,M,39.386,M,2.3,0000*56
$GNGGA,094500.41,3542.7007642,N,13945.6070216,E,4,12,0.99,22.471,M,39.386,M,2.4,0000*5A
$GNGGA,094500.56,3542.7008218,N,13945.6069974,E,4,12,0.94,22.475,M,39.386,M,2.6,0000*54
$GNGGA,094500.70,3542.7008822,N,13945.6069687,E,4,12,0.94,22.470,M,39.386,M,0.7,0000*56
$GNGGA,094500.84,3542.7009439,N,13945.6069432,E,4,12,0.94,22.476,M,39.386,M,0.8,0000*5F
$GNGGA,094500.98,3542.7010020,N,13945.6069232,E,4,12,0.99,22.479,M,39.386,M,1.0,0000*5B
$GNGGA,094501.12,3542.7010618,N,13945.6069118,E,4,12,0.99,22.476,M,39.386,M,1.1,0000*50
$GNGGA,094501.27,3542.7011377,N,13945.6068999,E,4,12,0.99,22.475,M,39.386,M,1.3,0000*5A
$GNGGA,094501.41,3542.7012063,N,13945.6068843,E,4,12,0.99,22.479,M,39.386,M,1.4,0000*52
$GNGGA,094501.55,3542.7012658,N,13945.6068609,E,4,12,0.99,22.483,M,39.386,M,1.6,0000*5E
$GNGGA,094501.69,3542.7013178,N,13945.6068421,E,4,12,0.99,22.482,M,39.386,M,1.7,0000*5D
$GNGGA,094501.83,3542.7013723,N,13945.6068262,E,4,12,0.99,22.483,M,39.386,M,1.8,0000*5E
$GNGGA,094501.98,3542.7014260,N,13945.6068159,E,4,12,0.99,22.488,M,39.386,M,2.0,0000*5A
$GNGGA,094502.12,3542.7014846,N,13945.6068123,E,4,12,0.99,22.487,M,39.386,M,2.1,0000*56
$GNGGA,094502.26,3542.7015450,N,13945.6068009,E,4,12,0.99,22.487,M,39.386,M,2.3,0000*50
$GNGGA,094502.40,3542.7016154,N,13945.6067934,E,4,12,0.99,22.471,M,39.386,M,0.4,0000*56
$GNGGA,094502.54,3542.7016837,N,13945.6067867,E,4,12,0.99,22.471,M,39.386,M,0.5,0000*59
$GNGGA,094502.69,3542.7017408,N,13945.6067740,E,4,12,0.99,22.471,M,39.386,M,0.7,0000*5E
$GNGGA,094502.83,3542.7017987,N,13945.6067559,E,4,12,0.99,22.468,M,39.386,M,0.8,0000*5D
$GNGGA,094502.97,3542.7018568,N,13945.6067435,E,4,12,0.99,22.461,M,39.386,M,1.0,0000*51
$GNGGA,094503.11,3542.7019121,N,13945.6067259,E,4,12,0.99,22.453,M,39.386,M,1.1,0000*5A
$GNGGA,094503.25,3542.7019726,N,13945.6067146,E,4,12,0.99,22.455,M,39.386,M,1.3,0000*55
$GNGGA,094503.40,3542.7020361,N,13945.6067047,E,4,12,0.99,22.451,M,39.386,M,1.4,0000*58
$GNGGA,094503.54,3542.7021043,N,13945.6066940,E,4,12,0.99,22.443,M,39.386,M,1.5,0000*52
$GNGGA,094503.68,3542.7021795,N,13945.6066720,E,4,12,0.99,22.444,M,39.386,M,1.7,0000*5C
$GNGGA,094503.82,3542.7022420,N,13945.6066509,E,4,12,0.99,22.454,M,39.386,M,1.8,0000*51
$GNGGA,094503.96,3542.7023056,N,13945.6066251,E,4,12,0.99,22.452,M,39.386,M,2.0,0000*57
$GNGGA,094504.11,3542.7023676,N,13945.6066041,E,4,12,0.99,22.443,M,39.386,M,2.1,0000*59
$GNGGA,094504.25,3542.7024316,N,13945.6065882,E,4,12,0.99,22.437,M,39.386,M,2.2,0000*5E
$GNGGA,094504.39,3542.7024919,N,13945.6065655,E,4,12,0.99,22.441,M,39.386,M,2.4,0000*55
$GNGGA,094504.53,3542.7025597,N,13945.6065557,E,4,12,0.99,22.443,M,39.386,M,0.5,0000*52
$GNGGA,094504.67,3542.7026251,N,13945.6065395,E,4,12,0.99,22.446,M,39.386,M,0.7,0000*54
$GNGGA,094504.82,3542.7026880,N,13945.6065324,E,4,12,0.99,22.445,M,39.386,M,0.8,0000*5F
$GNGGA,094504.96,3542.7027484,N,13945.6065084,E,4,12,0.99,22.443,M,39.386,M,1.0,0000*55
$GNGGA,094505.10,3542.7028066,N,13945.6064786,E,4,12,0.99,22.439,M,39.386,M,1.1,0000*55
$GNGGA,094505.24,3542.7028695,N,13945.6064375,E,4,12,0.99,22.437,M,39.386,M,1.2,0000*5D
$GNGGA,094505.38,3542.7029341,N,13945.6064103,E,4,12,0.99,22.447,M,39.386,M,1.4,0000*5F
$GNGGA,094505.53,3542.7029913,N,13945.6063717,E,4,12,0.99,22.467,M,39.386,M,1.5,0000*58
$GNGGA,094505.67,3542.7030566,N,13945.6063466,E,4,12,0.99,22.475,M,39.386,M,1.7,0000*5D
$GNGGA,094505.81,3542.7031201,N,13945.6063362,E,4,12,0.99,22.479,M,39.386,M,1.8,0000*52
$GNGGA,094505.95,3542.7031872,N,13945.6063253,E,4,12,0.99,22.486,M,39.386,M,2.0,0000*51
$GNGGA,094506.09,3542.7032533,N,13945.6063133,E,4,12,0.99,22.483,M,39.386,M,2.1,0000*5D
$GNGGA,094506.24,3542.7033134,N,13945.6062849,E,4,12,0.99,22.486,M,39.386,M,2.2,0000*53
$GNGGA,094506.38,3542.7033694,N,13945.6062391,E,4,12,0.99,22.482,M,39.386,M,2.4,0000*5F
$GNGGA,094506.52,3542.7034300,N,13945.6062083,E,4,12,0.99,22.475,M,39.386,M,0.5,0000*57
$GNGGA,094506.66,3542.7034949,N,13945.6061992,E,4,12,0.99,22.480,M,39.386,M,0.7,0000*55
$GNGGA,094506.80,3542.7035690,N,13945.6061891,E,4,12,0.99,22.472,M,39.386,M,0.8,0000*57
$GNGGA,094506.95,3542.7036472,N,13945.6061876,E,4,12,0.99,22.466,M,39.386,M,0.9,0000*53
$GNGGA,094507.09,3542.7037230,N,13945.6061802,E,4,12,0.99,22.463,M,39.386,M,1.1,0000*59
$GNGGA,094507.23,3542.7037958,N,13945.6061614,E,4,12,0.99,22.466,M,39.386,M,1.2,0000*5B
$GNGGA,094507.37,3542.7038597,N,13945.6061315,E,4,12,0.99,22.458,M,39.386,M,1.4,0000*51
$GNGGA,094507.51,3542.7039337,N,13945.6060994,E,4,12,0.99,22.459,M,39.386,M,1.5,0000*5E
$GNGGA,094507.66,3542.7040074,N,13945.6060982,E,4,12,0.99,22.459,M,39.386,M,1.7,0000*55
$GNGGA,094507.80,3542.7040797,N,13945.6060904,E,4,12,0.99,22.454,M,39.386,M,1.8,0000*5B
$GNGGA,094507.94,3542.7041499,N,13945.6060886,E,4,12,0.99,22.441,M,39.386,M,1.9,0000*5C
$GNGGA,094508.08,3542.7042248,N,13945.6060815,E,4,12,0.99,22.443,M,39.386,M,2.1,0000*5C
$GNGGA,094508.22,3542.7043032,N,13945.6060761,E,4,12,0.99,22.429,M,39.386,M,2.2,0000*59
$GNGGA,094508.37,3542.7043694,N,13945.6060619,E,4,12,0.99,22.426,M,39.386,M,2.4,0000*50
$GNGGA,094508.51,3542.7044448,N,13945.6060411,E,4,12,0.99,22.418,M,39.386,M,2.5,0000*52
$GNGGA,094508.65,3542.7045265,N,13945.6060282,E,4,12,0.99,22.417,M,39.386,M,2.7,0000*5C
$GNGGA,094508.79,3542.7046041,N,13945.6060334,E,4,12,0.99,22.408,M,39.386,M,0.8,0000*59
$GNGGA,094508.93,3542.7046834,N,13945.6060336,E,4,12,0.99,22.409,M,39.386,M,0.9,0000*55
$GNGGA,094509.08,3542.7047661,N,13945.6060288,E,4,12,0.99,22.408,M,39.386,M,1.1,0000*55
$GNGGA,094509.22,3542.7048432,N,13945.6060251,E,4,12,0.99,22.416,M,39.386,M,1.2,0000*5E
$GNGGA,094509.36,3542.7049133,N,13945.6060146,E,4,12,0.99,22.422,M,39.386,M,1.4,0000*5A
$GNGGA,094509.50,3542.7049773,N,13945.6059951,E,4,12,0.99,22.433,M,39.386,M,1.5,0000*5D
$GNGGA,094509.64,3542.7050401,N,13945.6059563,E,4,12,0.99,22.432,M,39.386,M,1.6,0000*5B
$GNGGA,094509.79,3542.7051136,N,13945.6059398,E,4,12,0.99,22.433,M,39.386,M,1.8,0000*5A
$GNGGA,094509.93,3542.7051826,N,13945.6059312,E,4,12,0.99,22.436,M,39.386,M,1.9,0000*50
$GNGGA,094510.07,3542.7052548,N,13945.6059325,E,4,12,0.99,22.438,M,39.386,M,2.1,0000*52
$GNGGA,094510.21,3542.7053340,N,13945.6059331,E,4,12,0.99,22.440,M,39.386,M,2.2,0000*50
$GNGGA,094510.35,3542.7054090,N,13945.6059329,E,4,12,0.99,22.438,M,39.386,M,2.4,0000*5C
$GNGGA,094510.50,3542.7054776,N,13945.6059207,E,4,12,0.99,22.446,M,39.386,M,2.5,0000*55
$GNGGA,094510.64,3542.7055446,N,13945.6059117,E,4,12,0.99,22.451,M,39.386,M,0.6,0000*56
$GNGGA,094510.78,3542.7056211,N,13945.6058969,E,4,12,0.99,22.443,M,39.386,M,0.8,0000*51
$GNGGA,094510.92,3542.7056965,N,13945.6058917,E,4,12,0.99,22.443,M,39.386,M,0.9,0000*55
$GNGGA,094511.06,3542.7057737,N,13945.6058887,E,4,12,0.90,22.437,M,39.386,M,1.1,0000*5A
$GNGGA,094511.21,3542.7058542,N,13945.6058954,E,4,12,0.90,22.438,M,39.386,M,1.2,0000*53
$GNGGA,094511.35,3542.7059352,N,13945.6058962,E,4,12,0.90,22.427,M,39.386,M,1.3,0000*5A
$GNGGA,094511.49,3542.7060121,N,13945.6058891,E,4,12,0.90,22.426,M,39.386,M,1.5,0000*57
$GNGGA,094511.63,3542.7060840,N,13945.6058697,E,4,12,0.90,22.427,M,39.386,M,1.6,0000*5B
$GNGGA,094511.77,3542.7061678,N,13945.6058552,E,4,12,0.99,22.425,M,39.386,M,1.8,0000*55
$GNGGA,094511.92,3542.7062430,N,13945.6058405,E,4,12,0.99,22.427,M,39.386,M,1.9,0000*53
$GNGGA,094512.06,3542.7063154,N,13945.6058342,E,4,12,0.99,22.430,M,39.386,M,2.1,0000*52
$GNGGA,094512.20,3542.7063866,N,13945.6058290,E,4,12,0.99,22.433,M,39.386,M,2.2,0000*50
$GNGGA,094512.34,3542.7064725,N,13945.6058212,E,4,12,0.99,22.418,M,39.386,M,2.3,0000*58
$GNGGA,094512.48,3542.7065435,N,13945.6058075,E,4,12,0.99,22.420,M,39.386,M,0.5,0000*5C
$GNGGA,094512.63,3542.7066067,N,13945.6057825,E,4,12,0.99,22.426,M,39.386,M,0.6,0000*52
$GNGGA,094512.77,3542.7066731,N,13945.6057561,E,4,12,0.99,22.423,M,39.386,M,0.8,0000*55
$GNGGA,094512.91,3542.7067437,N,13945.6057369,E,4,12,0.99,22.416,M,39.386,M,0.9,0000*50
$GNGGA,094513.05,3542.7068059,N,13945.6057180,E,4,12,0.99,22.415,M,39.386,M,1.1,0000*50
$GNGGA,094513.19,3542.7068741,N,13945.6057203,E,4,12,0.99,22.425,M,39.386,M,1.2,0000*5B
$GNGGA,094513.34,3542.7069526,N,13945.6057139,E,4,12,0.99,22.429,M,39.386,M,1.3,0000*51
$GNGGA,094513.48,3542.7070247,N,13945.6057273,E,4,12,0.99,22.425,M,39.386,M,1.5,0000*55
$GNGGA,094513.62,3542.7071011,N,13945.6057317,E,4,12,0.99,22.411,M,39.386,M,1.6,0000*5A
$GNGGA,094513.76,3542.7071673,N,13945.6057193,E,4,12,0.99,22.412,M,39.386,M,1.8,0000*5E
$GNGGA,094513.90,3542.7072398,N,13945.6056996,E,4,12,0.99,22.402,M,39.386,M,1.9,0000*59
$GNGGA,094514.05,3542.7073171,N,13945.6056881,E,4,12,0.99,22.400,M,39.386,M,2.0,0000*59
$GNGGA,094514.19,3542.7073871,N,13945.6056799,E,4,12,0.99,22.391,M,39.386,M,2.2,0000*56
$GNGGA,094514.33,3542.7074627,N,13945.6056763,E,4,12,0.99,22.397,M,39.386,M,2.3,0000*56
$GNGGA,094514.47,3542.7075464,N,13945.6056777,E,4,12,0.99,22.392,M,39.386,M,2.5,0000*57
$GNGGA,094514.61,3542.7076300,N,13945.6056837,E,4,12,0.99,22.388,M,39.386,M,2.6,0000*56
$GNGGA,094514.76,3542.7076998,N,13945.6056744,E,4,12,0.99,22.381,M,39.386,M,0.8,0000*55
$GNGGA,094514.90,3542.7077729,N,13945.6056685,E,4,12,0.99,22.367,M,39.386,M,0.9,0000*5D
$GNGGA,094515.04,3542.7078484,N,13945.6056450,E,4,12,0.89,22.354,M,39.386,M,1.0,0000*59
$GNGGA,094515.18,3542.7079325,N,13945.6056327,E,4,12,0.89,22.350,M,39.386,M,1.2,0000*58
$GNGGA,094515.32,3542.7080079,N,13945.6056225,E,4,12,0.89,22.343,M,39.386,M,1.3,0000*5C
$GNGGA,094515.47,3542.7080866,N,13945.6056150,E,4,12,0.89,22.338,M,39.386,M,1.5,0000*53
$GNGGA,094515.61,3542.7081561,N,13945.6055991,E,4,12,0.89,22.343,M,39.386,M,1.6,0000*55
$GNGGA,094515.75,3542.7082150,N,13945.6055750,E,4,12,0.99,22.340,M,39.386,M,1.8,0000*5A
$GNGGA,094515.89,3542.7082739,N,13945.6055639,E,4,12,0.99,22.339,M,39.386,M,1.9,0000*51
$GNGGA,094516.03,3542.7083333,N,13945.6055439,E,4,12,0.99,22.336,M,39.386,M,2.0,0000*58
$GNGGA,094516.18,3542.7083984,N,13945.6055425,E,4,12,0.90,22.332,M,39.386,M,2.2,0000*56
$GNGGA,094516.32,3542.7084589,N,13945.6055465,E,4,12,0.90,22.332,M,39.386,M,2.3,0000*5D
$GNGGA,094516.46,3542.7085209,N,13945.6055677,E,4,12,0.90,22.338,M,39.386,M,2.5,0000*5D
$GNGGA,094516.60,3542.7085803,N,13945.6055847,E,4,12,0.90,22.334,M,39.386,M,0.6,0000*59
$GNGGA,094516.74,3542.7086301,N,13945.6056215,E,4,12,0.90,22.341,M,39.386,M,0.7,0000*5B
$GNGGA,094516.89,3542.7086620,N,13945.6056578,E,4,12,0.90,22.333,M,39.386,M,0.9,0000*58
$GNGGA,094517.03,3542.7087013,N,13945.6057020,E,4,12,0.90,22.290,M,39.386,M,1.0,0000*55
$GNGGA,094517.17,3542.7087369,N,13945.6057730,E,4,12,0.90,22.262,M,39.386,M,1.2,0000*57
$GNGGA,094517.31,3542.7087789,N,13945.6058571,E,4,12,0.90,22.270,M,39.386,M,1.3,0000*53
$GNGGA,094517.45,3542.7088143,N,13945.6059703,E,4,12,0.84,22.288,M,39.386,M,1.5,0000*5D
$GNGGA,094517.60,3542.7088653,N,13945.6060565,E,4,12,0.84,22.282,M,39.386,M,1.6,0000*5D
$GNGGA,094517.74,3542.7089082,N,13945.6061613,E,4,12,0.84,22.307,M,39.386,M,1.7,0000*5D
$GNGGA,094517.88,3542.7089424,N,13945.6062497,E,4,12,0.84,22.333,M,39.386,M,1.9,0000*52
$GNGGA,094518.02,3542.7089453,N,13945.6063361,E,4,12,0.84,22.355,M,39.386,M,2.0,0000*5A
$GNGGA,094518.16,3542.7089356,N,13945.6064173,E,4,12,0.82,22.387,M,39.386,M,2.2,0000*50
$GNGGA,094518.31,3542.7089314,N,13945.6065320,E,4,12,0.82,22.408,M,39.386,M,2.3,0000*57
$GNGGA,094518.45,3542.7089422,N,13945.6066374,E,4,12,0.82,22.394,M,39.386,M,2.4,0000*51
$GNGGA,094518.59,3542.7089398,N,13945.6067328,E,4,12,0.82,22.382,M,39.386,M,0.6,0000*55
$GNGGA,094518.73,3542.7089408,N,13945.6068498,E,4,12,0.82,22.376,M,39.386,M,0.7,0000*5A
$GNGGA,094518.87,3542.7089327,N,13945.6069548,E,4,12,0.82,22.368,M,39.386,M,0.9,0000*57
$GNGGA,094519.02,3542.7089346,N,13945.6070493,E,4,12,0.82,22.394,M,39.386,M,1.0,0000*58
$GNGGA,094519.16,3542.7089266,N,13945.6071549,E,4,12,0.82,22.376,M,39.386,M,1.2,0000*57
$GNGGA,094519.30,3542.7089019,N,13945.6072445,E,4,12,0.82,22.393,M,39.386,M,1.3,0000*5D
$GNGGA,094519.44,3542.7088669,N,13945.6073267,E,4,12,0.82,22.434,M,39.386,M,1.4,0000*54
$GNGGA,094519.58,3542.7088319,N,13945.6074054,E,4,12,0.82,22.469,M,39.386,M,1.6,0000*54
$GNGGA,094519.73,3542.7087944,N,13945.6074864,E,4,12,0.82,22.456,M,39.386,M,1.7,0000*56
$GNGGA,094519.87,3542.7087574,N,13945.6075759,E,4,12,0.82,22.464,M,39.386,M,1.9,0000*5D
$GNGGA,094520.01,3542.7087232,N,13945.6076628,E,4,12,0.82,22.454,M,39.386,M,2.0,0000*51
$GNGGA,094520.15,3542.7086775,N,13945.6077379,E,4,12,0.82,22.478,M,39.386,M,2.2,0000*5F
$GNGGA,094520.29,3542.7086108,N,13945.6078036,E,4,12,0.82,22.470,M,39.386,M,2.3,0000*52
$GNGGA,094520.44,3542.7085375,N,13945.6078648,E,4,12,0.82,22.468,M,39.386,M,0.4,0000*51
$GNGGA,094520.58,3542.7084772,N,13945.6079277,E,4,12,0.82,22.472,M,39.386,M,0.6,0000*5E
$GNGGA,094520.72,3542.7083985,N,13945.6079706,E,4,12,0.77,22.521,M,39.386,M,0.7,0000*58
$GNGGA,094520.86,3542.7083380,N,13945.6080488,E,4,12,0.77,22.491,M,39.386,M,0.9,0000*5B
$GNGGA,094521.00,3542.7082660,N,13945.6081031,E,4,12,0.77,22.490,M,39.386,M,1.0,0000*50
$GNGGA,094521.15,3542.7082118,N,13945.6081770,E,4,12,0.77,22.503,M,39.386,M,1.1,0000*54
$GNGGA,094521.29,3542.7081498,N,13945.6082410,E,4,12,0.77,22.494,M,39.386,M,1.3,0000*5E
$GNGGA,094521.43,3542.7080676,N,13945.6082701,E,4,12,0.77,22.466,M,39.386,M,1.4,0000*58
$GNGGA,094521.57,3542.7079916,N,13945.6083173,E,4,12,0.77,22.475,M,39.386,M,1.6,0000*50
$GNGGA,094521.71,3542.7079112,N,13945.6083752,E,4,12,0.77,22.501,M,39.386,M,1.7,0000*5E
$GNGGA,094521.86,3542.7078365,N,13945.6084156,E,4,12,0.77,22.505,M,39.386,M,1.9,0000*5A
$GNGGA,094522.00,3542.7077579,N,13945.6084542,E,4,12,0.77,22.488,M,39.386,M,2.0,0000*5C
$GNGGA,094522.14,3542.7076876,N,13945.6085176,E,4,12,0.77,22.498,M,39.386,M,2.1,0000*58
$GNGGA,094522.28,3542.7076148,N,13945.6085511,E,4,12,0.77,22.502,M,39.386,M,2.3,0000*56
$GNGGA,094522.42,3542.7075242,N,13945.6085897,E,4,12,0.77,22.520,M,39.386,M,2.4,0000*54
$GNGGA,094522.57,3542.7074416,N,13945.6086169,E,4,12,0.77,22.509,M,39.386,M,2.6,0000*54
$GNGGA,094522.71,3542.7073540,N,13945.6086473,E,4,12,0.77,22.512,M,39.386,M,0.7,0000*52
$GNGGA,094522.85,3542.7072668,N,13945.6086713,E,4,12,0.77,22.536,M,39.386,M,0.9,0000*5C
$GNGGA,094522.99,3542.7071792,N,13945.6087048,E,4,12,0.77,22.531,M,39.386,M,1.0,0000*51
$GNGGA,094523.13,3542.7070888,N,13945.6087315,E,4,12,0.77,22.522,M,39.386,M,1.1,0000*5F
$GNGGA,094523.28,3542.7070060,N,13945.6087498,E,4,12,0.77,22.508,M,39.386,M,1.3,0000*51
$GNGGA,094523.42,3542.7069208,N,13945.6087773,E,4,12,0.77,22.514,M,39.386,M,1.4,0000*55
$GNGGA,094523.56,3542.7068296,N,13945.6087925,E,4,12,0.77,22.498,M,39.386,M,1.6,0000*5C
$GNGGA,094523.70,3542.7067460,N,13945.6088044,E,4,12,0.77,22.470,M,39.386,M,1.7,0000*5E
$GNGGA,094523.84,3542.7066670,N,13945.6088264,E,4,12,0.77,22.459,M,39.386,M,1.8,0000*53
$GNGGA,094523.99,3542.7065851,N,13945.6088421,E,4,12,0.77,22.458,M,39.386,M,2.0,0000*5C
$GNGGA,094524.13,3542.7065019,N,13945.6088580,E,4,12,0.77,22.454,M,39.386,M,2.1,0000*5A
$GNGGA,094524.27,3542.7064163,N,13945.6088735,E,4,12,0.77,22.449,M,39.386,M,2.3,0000*52
$GNGGA,094524.41,3542.7063380,N,13945.6088846,E,4,12,0.79,22.450,M,39.386,M,0.4,0000*52
$GNGGA,094524.55,3542.7062528,N,13945.6089073,E,4,12,0.77,22.480,M,39.386,M,0.6,0000*5C
$GNGGA,094524.70,3542.7061685,N,13945.6089199,E,4,12,0.77,22.440,M,39.386,M,0.7,0000*54
$GNGGA,094524.84,3542.7060814,N,13945.6089369,E,4,12,0.77,22.441,M,39.386,M,0.8,0000*5B
$GNGGA,094524.98,3542.7060010,N,13945.6089479,E,4,12,0.77,22.432,M,39.386,M,1.0,0000*51
$GNGGA,094525.12,3542.7059239,N,13945.6089748,E,4,12,0.77,22.427,M,39.386,M,1.1,0000*55
$GNGGA,094525.26,3542.7058283,N,13945.6089976,E,4,12,0.77,22.446,M,39.386,M,1.3,0000*54
$GNGGA,094525.41,3542.7057545,N,13945.6090299,E,4,12,0.77,22.439,M,39.386,M,1.4,0000*5A
$GNGGA,094525.55,3542.7056783,N,13945.6090506,E,4,12,0.98,22.453,M,39.386,M,1.5,0000*5B
$GNGGA,094525.69,3542.7055939,N,13945.6090774,E,4,12,0.98,22.472,M,39.386,M,1.7,0000*5E
$GNGGA,094525.83,3542.7055127,N,13945.6090989,E,4,12,0.98,22.444,M,39.386,M,1.8,0000*5B
$GNGGA,094525.97,3542.7054333,N,13945.6091231,E,4,12,0.77,22.419,M,39.386,M,2.0,0000*53
$GNGGA,094526.12,3542.7053501,N,13945.6091480,E,4,12,0.77,22.430,M,39.386,M,2.1,0000*5B
$GNGGA,094526.26,3542.7052664,N,13945.6091727,E,4,12,0.77,22.433,M,39.386,M,2.3,0000*52
$GNGGA,094526.40,3542.7051756,N,13945.6091937,E,4,12,0.77,22.433,M,39.386,M,0.4,0000*5B
$GNGGA,094526.54,3542.7050931,N,13945.6092294,E,4,12,0.77,22.440,M,39.386,M,0.5,0000*54
$GNGGA,094526.68,3542.7050090,N,13945.6092529,E,4,12,0.77,22.474,M,39.386,M,0.7,0000*5D
$GNGGA,094526.83,3542.7049305,N,13945.6092749,E,4,12,0.77,22.464,M,39.386,M,0.8,0000*55
$GNGGA,094526.97,3542.7048382,N,13945.6092853,E,4,12,1.02,22.446,M,39.386,M,1.0,0000*50
$GNGGA,094527.11,3542.7047466,N,13945.6093136,E,4,12,1.02,22.448,M,39.386,M,1.1,0000*59
$GNGGA,094527.25,3542.7046587,N,13945.6093432,E,4,12,1.02,22.453,M,39.386,M,1.3,0000*58
$GNGGA,094527.39,3542.7045729,N,13945.6093574,E,4,12,0.79,22.447,M,39.386,M,1.4,0000*5C
$GNGGA,094527.54,3542.7044787,N,13945.6093787,E,4,12,0.79,22.438,M,39.386,M,1.5,0000*55
$GNGGA,094527.68,3542.7043967,N,13945.6094166,E,4,12,0.79,22.448,M,39.386,M,1.7,0000*56
$GNGGA,094527.82,3542.7043040,N,13945.6094265,E,4,12,0.79,22.487,M,39.386,M,1.8,0000*52
$GNGGA,094527.96,3542.7042138,N,13945.6094406,E,4,12,0.79,22.476,M,39.386,M,2.0,0000*5E
$GNGGA,094528.10,3542.7041198,N,13945.6094600,E,4,12,0.79,22.459,M,39.386,M,2.1,0000*5E
$GNGGA,094528.25,3542.7040264,N,13945.6094602,E,4,12,0.79,22.460,M,39.386,M,2.2,0000*52
$GNGGA,094528.39,3542.7039427,N,13945.6094930,E,4,12,0.79,22.479,M,39.386,M,2.4,0000*50
$GNGGA,094528.53,3542.7038593,N,13945.6095139,E,4,12,0.79,22.442,M,39.386,M,0.5,0000*58
$GNGGA,094528.67,3542.7037739,N,13945.6095439,E,4,12,0.79,22.438,M,39.386,M,0.7,0000*58
$GNGGA,094528.81,3542.7036851,N,13945.6095644,E,4,12,0.79,22.458,M,39.386,M,0.8,0000*51
$GNGGA,094528.96,3542.7036031,N,13945.6095730,E,4,12,0.79,22.463,M,39.386,M,1.0,0000*5A
$GNGGA,094529.10,3542.7035125,N,13945.6095717,E,4,12,0.77,22.467,M,39.386,M,1.1,0000*5C
$GNGGA,094529.24,3542.7034228,N,13945.6095802,E,4,12,0.72,22.446,M,39.386,M,1.2,0000*5A
$GNGGA,094529.38,3542.7033250,N,13945.6095812,E,4,12,0.72,22.486,M,39.386,M,1.4,0000*54
$GNGGA,094529.52,3542.7032305,N,13945.6095898,E,4,12,0.72,22.517,M,39.386,M,1.5,0000*52
$GNGGA,094529.67,3542.7031381,N,13945.6095832,E,4,12,0.72,22.507,M,39.386,M,1.7,0000*58
$GNGGA,094529.81,3542.7030454,N,13945.6096039,E,4,12,0.72,22.509,M,39.386,M,1.8,0000*5F
$GNGGA,094529.95,3542.7029700,N,13945.6096149,E,4,12,0.72,22.499,M,39.386,M,2.0,0000*55
$GNGGA,094530.09,3542.7028899,N,13945.6096370,E,4,12,0.72,22.503,M,39.386,M,2.1,0000*5D
$GNGGA,094530.23,3542.7027897,N,13945.6096216,E,4,12,0.72,22.498,M,39.386,M,2.2,0000*55
$GNGGA,094530.38,3542.7026948,N,13945.6096252,E,4,12,0.72,22.512,M,39.386,M,2.4,0000*58
$GNGGA,094530.52,3542.7026112,N,13945.6096274,E,4,12,0.72,22.490,M,39.386,M,0.5,0000*5F
$GNGGA,094530.66,3542.7025267,N,13945.6096404,E,4,12,0.72,22.494,M,39.386,M,0.7,0000*5D
$GNGGA,094530.80,3542.7024391,N,13945.6096384,E,4,12,0.77,22.467,M,39.386,M,0.8,0000*55
$GNGGA,094530.94,3542.7023503,N,13945.6096373,E,4,12,0.77,22.465,M,39.386,M,0.9,0000*51
$GNGGA,094531.09,3542.7022648,N,13945.6096488,E,4,12,0.77,22.484,M,39.386,M,1.1,0000*5C
$GNGGA,094531.23,3542.7021855,N,13945.6096486,E,4,12,0.79,22.495,M,39.386,M,1.2,0000*56
$GNGGA,094531.37,3542.7020961,N,13945.6096304,E,4,12,0.79,22.481,M,39.386,M,1.4,0000*5A
$GNGGA,094531.51,3542.7020114,N,13945.6096227,E,4,12,0.79,22.449,M,39.386,M,1.5,0000*55
$GNGGA,094531.65,3542.7019228,N,13945.6096071,E,4,12,0.79,22.474,M,39.386,M,1.7,0000*59
$GNGGA,094531.80,3542.7018432,N,13945.6095935,E,4,12,0.79,22.459,M,39.386,M,1.8,0000*54
$GNGGA,094531.94,3542.7017560,N,13945.6095761,E,4,12,0.79,22.456,M,39.386,M,1.9,0000*59
$GNGGA,094532.08,3542.7016654,N,13945.6095753,E,4,12,0.79,22.457,M,39.386,M,2.1,0000*51
$GNGGA,094532.22,3542.7015863,N,13945.6095711,E,4,12,0.79,22.478,M,39.386,M,2.2,0000*58
$GNGGA,094532.36,3542.7014949,N,13945.6095640,E,4,12,0.79,22.472,M,39.386,M,2.4,0000*5C
$GNGGA,094532.51,3542.7013946,N,13945.6095421,E,4,12,0.79,22.466,M,39.386,M,0.5,0000*56
$GNGGA,094532.65,3542.7012990,N,13945.6095302,E,4,12,0.79,22.441,M,39.386,M,0.6,0000*5B
$GNGGA,094532.79,3542.7012133,N,13945.6095455,E,4,12,0.79,22.458,M,39.386,M,0.8,0000*54
$GNGGA,094532.93,3542.7011239,N,13945.6095517,E,4,12,0.79,22.451,M,39.386,M,0.9,0000*55
$GNGGA,094533.07,3542.7010414,N,13945.6095691,E,4,12,0.79,22.406,M,39.386,M,1.1,0000*57
$GNGGA,094533.22,3542.7009610,N,13945.6095991,E,4,12,0.79,22.413,M,39.386,M,1.2,0000*56
$GNGGA,094533.36,3542.7008774,N,13945.6096168,E,4,12,0.79,22.431,M,39.386,M,1.4,0000*5A
$GNGGA,094533.50,3542.7007909,N,13945.6096308,E,4,12,0.79,22.423,M,39.386,M,1.5,0000*57
$GNGGA,094533.64,3542.7006955,N,13945.6096460,E,4,12,0.79,22.414,M,39.386,M,1.6,0000*56
$GNGGA,094533.78,3542.7006150,N,13945.6096530,E,4,12,0.79,22.402,M,39.386,M,1.8,0000*5B
$GNGGA,094533.93,3542.7005360,N,13945.6096634,E,4,12,0.79,22.424,M,39.386,M,1.9,0000*5E
$GNGGA,094534.07,3542.7004469,N,13945.6096495,E,4,12,0.79,22.423,M,39.386,M,2.1,0000*5E
$GNGGA,094534.21,3542.7003684,N,13945.6096553,E,4,12,0.79,22.405,M,39.386,M,2.2,0000*50
$GNGGA,094534.35,3542.7002870,N,13945.6096470,E,4,12,0.79,22.407,M,39.386,M,2.4,0000*55
$GNGGA,094534.49,3542.7002065,N,13945.6096259,E,4,12,0.79,22.426,M,39.386,M,2.5,0000*5D
$GNGGA,094534.64,3542.7001249,N,13945.6095987,E,4,12,0.79,22.408,M,39.386,M,0.6,0000*5B
$GNGGA,094534.78,3542.7000397,N,13945.6095615,E,4,12,0.84,22.372,M,39.386,M,0.8,0000*57
$GNGGA,094534.92,3542.6999602,N,13945.6095307,E,4,12,0.84,22.386,M,39.386,M,0.9,0000*5E
$GNGGA,094535.06,3542.6998769,N,13945.6094906,E,4,12,0.79,22.393,M,39.386,M,1.1,0000*5A
$GNGGA,094535.20,3542.6997965,N,13945.6094520,E,4,12,0.84,22.397,M,39.386,M,1.2,0000*5E
$GNGGA,094535.35,3542.6997120,N,13945.6094014,E,4,12,0.84,22.382,M,39.386,M,1.3,0000*54
$GNGGA,094535.49,3542.6996297,N,13945.6093661,E,4,12,0.84,22.389,M,39.386,M,1.5,0000*5F
$GNGGA,094535.63,3542.6995548,N,13945.6093238,E,4,12,0.84,22.387,M,39.386,M,1.6,0000*54
$GNGGA,094535.77,3542.6994682,N,13945.6092653,E,4,12,0.84,22.386,M,39.386,M,1.8,0000*52
$GNGGA,094535.91,3542.6993799,N,13945.6092120,E,4,12,0.79,22.388,M,39.386,M,1.9,0000*58
$GNGGA,094536.06,3542.6993006,N,13945.6091640,E,4,12,0.84,22.391,M,39.386,M,2.1,0000*57
$GNGGA,094536.20,3542.6992236,N,13945.6091174,E,4,12,0.84,22.409,M,39.386,M,2.2,0000*56
$GNGGA,094536.34,3542.6991365,N,13945.6090698,E,4,12,0.84,22.395,M,39.386,M,2.3,0000*50
$GNGGA,094536.48,3542.6990584,N,13945.6090311,E,4,12,0.82,22.368,M,39.386,M,0.5,0000*57
$GNGGA,094536.62,3542.6989783,N,13945.6089947,E,4,12,0.82,22.369,M,39.386,M,0.6,0000*51
$GNGGA,094536.77,3542.6988987,N,13945.6089421,E,4,12,0.82,22.369,M,39.386,M,0.8,0000*5D
$GNGGA,094536.91,3542.6988189,N,13945.6088868,E,4,12,0.82,22.342,M,39.386,M,0.9,0000*5B
$GNGGA,094537.05,3542.6987485,N,13945.6088321,E,4,12,0.82,22.324,M,39.386,M,1.1,0000*5E
$GNGGA,094537.19,3542.6986771,N,13945.6087763,E,4,12,0.82,22.337,M,39.386,M,1.2,0000*56
$GNGGA,094537.33,3542.6986103,N,13945.6087382,E,4,12,0.74,22.373,M,39.386,M,1.3,0000*5E
$GNGGA,094537.48,3542.6985335,N,13945.6086793,E,4,12,0.74,22.361,M,39.386,M,1.5,0000*56
$GNGGA,094537.62,3542.6984669,N,13945.6086346,E,4,12,0.74,22.344,M,39.386,M,1.6,0000*5B
$GNGGA,094537.76,3542.6984025,N,13945.6085882,E,4,12,0.74,22.354,M,39.386,M,1.8,0000*5F
$GNGGA,094537.90,3542.6983400,N,13945.6085348,E,4,12,0.74,22.355,M,39.386,M,1.9,0000*5E
$GNGGA,094538.04,3542.6982767,N,13945.6084823,E,4,12,0.74,22.355,M,39.386,M,2.0,0000*52
$GNGGA,094538.19,3542.6982152,N,13945.6084270,E,4,12,0.74,22.359,M,39.386,M,2.2,0000*5C
$GNGGA,094538.33,3542.6981693,N,13945.6083852,E,4,12,0.82,22.387,M,39.386,M,2.3,0000*5B
$GNGGA,094538.47,3542.6981155,N,13945.6083467,E,4,12,0.82,22.403,M,39.386,M,0.5,0000*50
$GNGGA,094538.61,3542.6980593,N,13945.6083124,E,4,12,0.82,22.421,M,39.386,M,0.6,0000*5A
$GNGGA,094538.75,3542.6980057,N,13945.6082955,E,4,12,0.82,22.404,M,39.386,M,0.8,0000*54
$GNGGA,094538.90,3542.6979362,N,13945.6082688,E,4,12,0.82,22.413,M,39.386,M,0.9,0000*54
$GNGGA,094539.04,3542.6978849,N,13945.6082395,E,4,12,0.82,22.434,M,39.386,M,1.0,0000*5F
$GNGGA,094539.18,3542.6978320,N,13945.6081940,E,4,12,0.82,22.439,M,39.386,M,1.2,0000*58
$GNGGA,094539.32,3542.6977680,N,13945.6081500,E,4,12,0.82,22.449,M,39.386,M,1.3,0000*5E
$GNGGA,094539.46,3542.6977171,N,13945.6081114,E,4,12,0.82,22.438,M,39.386,M,1.5,0000*55
$GNGGA,094539.61,3542.6976745,N,13945.6080839,E,4,12,0.82,22.431,M,39.386,M,1.6,0000*5D
$GNGGA,094539.75,3542.6976350,N,13945.6080533,E,4,12,0.82,22.438,M,39.386,M,1.7,0000*57
$GNGGA,094539.89,3542.6975919,N,13945.6080253,E,4,12,0.82,22.441,M,39.386,M,1.9,0000*51
$GNGGA,094540.03,3542.6975460,N,13945.6080213,E,4,12,0.82,22.431,M,39.386,M,2.0,0000*57
$GNGGA,094540.17,3542.6974952,N,13945.6080082,E,4,12,0.82,22.441,M,39.386,M,2.2,0000*50
$GNGGA,094540.32,3542.6974664,N,13945.6079937,E,4,12,0.82,22.437,M,39.386,M,2.3,0000*5C
$GNGGA,094540.46,3542.6974246,N,13945.6079798,E,4,12,0.85,22.446,M,39.386,M,2.5,0000*57
$GNGGA,094540.60,3542.6973847,N,13945.6079510,E,4,12,0.85,22.437,M,39.386,M,2.6,0000*58
$GNGGA,094540.74,3542.6973518,N,13945.6079305,E,4,12,0.85,22.423,M,39.386,M,0.7,0000*5E
$GNGGA,094540.88,3542.6973120,N,13945.6078977,E,4,12,0.85,22.414,M,39.386,M,0.9,0000*56
$GNGGA,094541.03,3542.6972787,N,13945.6078670,E,4,12,1.11,22.430,M,39.386,M,1.0,0000*54
$GNGGA,094541.17,3542.6972516,N,13945.6078568,E,4,12,1.11,22.443,M,39.386,M,1.2,0000*57
$GNGGA,094541.31,3542.6972165,N,13945.6078498,E,4,12,1.11,22.450,M,39.386,M,1.3,0000*5E
$GNGGA,094541.45,3542.6971843,N,13945.6078580,E,4,12,0.90,22.426,M,39.386,M,1.5,0000*54
$GNGGA,094541.59,3542.6971368,N,13945.6078772,E,4,12,0.82,22.423,M,39.386,M,1.6,0000*51
$GNGGA,094541.74,3542.6971025,N,13945.6078854,E,4,12,0.97,22.441,M,39.386,M,1.7,0000*5E
$GNGGA,094541.88,3542.6970710,N,13945.6078983,E,4,12,0.97,22.455,M,39.386,M,1.9,0000*5D
$GNGGA,094542.02,3542.6970332,N,13945.6079086,E,4,12,0.97,22.475,M,39.386,M,2.0,0000*5D
$GNGGA,094542.16,3542.6969954,N,13945.6079171,E,4,12,0.97,22.489,M,39.386,M,2.2,0000*52
$GNGGA,094542.30,3542.6969476,N,13945.6079385,E,4,12,1.14,22.482,M,39.386,M,2.3,0000*52
$GNGGA,094542.45,3542.6969078,N,13945.6079464,E,4,12,1.14,22.464,M,39.386,M,2.4,0000*5D
$GNGGA,094542.59,3542.6968671,N,13945.6079554,E,4,12,1.14,22.471,M,39.386,M,0.6,0000*58
$GNGGA,094542.73,3542.6968363,N,13945.6079682,E,4,12,1.14,22.486,M,39.386,M,0.7,0000*57
$GNGGA,094542.87,3542.6968010,N,13945.6079882,E,4,12,1.14,22.489,M,39.386,M,0.9,0000*54
$GNGGA,094543.01,3542.6967533,N,13945.6080097,E,4,12,0.97,22.481,M,39.386,M,1.0,0000*50
$GNGGA,094543.16,3542.6967159,N,13945.6080585,E,4,12,0.97,22.467,M,39.386,M,1.2,0000*52
$GNGGA,094543.30,3542.6966745,N,13945.6080884,E,4,12,1.14,22.453,M,39.386,M,1.3,0000*5C
$GNGGA,094543.44,3542.6966366,N,13945.6081221,E,4,12,0.99,22.448,M,39.386,M,1.4,0000*57
$GNGGA,094543.58,3542.6965999,N,13945.6081463,E,4,12,1.14,22.448,M,39.386,M,1.6,0000*55
$GNGGA,094543.72,3542.6965655,N,13945.6081694,E,4,12,1.14,22.433,M,39.386,M,1.7,0000*55
$GNGGA,094543.87,3542.6965151,N,13945.6081997,E,4,12,1.14,22.442,M,39.386,M,1.9,0000*58
$GNGGA,094544.01,3542.6964619,N,13945.6082356,E,4,12,1.14,22.442,M,39.386,M,2.0,0000*55
$GNGGA,094544.15,3542.6964129,N,13945.6082507,E,4,12,1.14,22.452,M,39.386,M,2.2,0000*55
$GNGGA,094544.29,3542.6963638,N,13945.6082793,E,4,12,1.14,22.483,M,39.386,M,2.3,0000*58
$GNGGA,094544.43,3542.6963228,N,13945.6083018,E,4,12,0.90,22.480,M,39.386,M,0.4,0000*5F
$GNGGA,094544.58,3542.6962779,N,13945.6083297,E,4,12,0.90,22.462,M,39.386,M,0.6,0000*5E
$GNGGA,094544.72,3542.6962368,N,13945.6083570,E,4,12,0.99,22.475,M,39.386,M,0.7,0000*52
$GNGGA,094544.86,3542.6962045,N,13945.6083718,E,4,12,0.99,22.473,M,39.386,M,0.9,0000*51
$GNGGA,094545.00,3542.6961608,N,13945.6084006,E,4,12,0.99,22.486,M,39.386,M,1.0,0000*5F
$GNGGA,094545.14,3542.6961295,N,13945.6084201,E,4,12,0.99,22.452,M,39.386,M,1.1,0000*57
$GNGGA,094545.29,3542.6960831,N,13945.6084425,E,4,12,0.99,22.429,M,39.386,M,1.3,0000*52
$GNGGA,094545.43,3542.6960432,N,13945.6084635,E,4,12,0.99,22.403,M,39.386,M,1.4,0000*5D
$GNGGA,094545.57,3542.6959936,N,13945.6084755,E,4,12,0.99,22.383,M,39.386,M,1.6,0000*51
$GNGGA,094545.71,3542.6959571,N,13945.6084955,E,4,12,0.99,22.361,M,39.386,M,1.7,0000*59
$GNGGA,094545.85,3542.6959268,N,13945.6085084,E,4,12,0.99,22.351,M,39.386,M,1.9,0000*54
$GNGGA,094546.00,3542.6958978,N,13945.6085271,E,4,12,0.99,22.324,M,39.386,M,2.0,0000*51
$GNGGA,094546.14,3542.6958755,N,13945.6085505,E,4,12,1.14,22.280,M,39.386,M,2.1,0000*5B
$GNGGA,094546.28,3542.6958604,N,13945.6085375,E,4,12,1.14,22.223,M,39.386,M,2.3,0000*5B
$GNGGA,094546.42,3542.6958501,N,13945.6085547,E,4,12,1.14,22.172,M,39.386,M,0.4,0000*54
$GNGGA,094546.56,3542.6958370,N,13945.6085610,E,4,12,1.14,22.155,M,39.386,M,0.6,0000*57
$GNGGA,094546.71,3542.6958302,N,13945.6085638,E,4,12,1.14,22.127,M,39.386,M,0.7,0000*59
$GNGGA,094546.85,3542.6958131,N,13945.6085667,E,4,12,1.29,22.110,M,39.386,M,0.8,0000*5F
$GNGGA,094546.99,3542.6958056,N,13945.6085701,E,4,12,1.29,22.106,M,39.386,M,1.0,0000*5D
$GNGGA,094547.13,3542.6957984,N,13945.6085773,E,4,12,1.29,22.090,M,39.386,M,1.1,0000*5D
$GNGGA,094547.27,3542.6957820,N,13945.6085766,E,4,12,1.29,22.086,M,39.386,M,1.3,0000*54
$GNGGA,094547.42,3542.6957734,N,13945.6085716,E,4,12,1.29,22.090,M,39.386,M,1.4,0000*5A
$GNGGA,094547.56,3542.6957763,N,13945.6085611,E,4,12,1.14,22.094,M,39.386,M,1.6,0000*53
$GNGGA,094547.70,3542.6957769,N,13945.6085523,E,4,12,1.14,22.108,M,39.386,M,1.7,0000*5A
$GNGGA,094547.84,3542.6957871,N,13945.6085505,E,4,12,1.14,22.109,M,39.386,M,1.8,0000*5D
$GNGGA,094547.98,3542.6957786,N,13945.6085535,E,4,12,1.14,22.104,M,39.386,M,2.0,0000*52
$GNGGA,094548.13,3542.6957658,N,13945.6085534,E,4,12,1.14,22.117,M,39.386,M,2.1,0000*5E
$GNGGA,094548.27,3542.6957575,N,13945.6085562,E,4,12,1.14,22.131,M,39.386,M,2.3,0000*50
$GNGGA,094548.41,3542.6957656,N,13945.6085593,E,4,12,1.29,22.132,M,39.386,M,2.4,0000*56
$GNGGA,094548.55,3542.6957556,N,13945.6085549,E,4,12,1.29,22.121,M,39.386,M,2.6,0000*57
